{
  "1": {
    "id": 8,
    "name": "Tehran",
    "latitude": 35.70000076293945,
    "longitude": 51.41669845581055
  },
  "2": {
    "id": 9,
    "name": "Tashkent",
    "latitude": 41.29999923706055,
    "longitude": 69.2667007446289
  },
  "3": {
    "id": 10,
    "name": "Sanaa",
    "latitude": 15.350000381469727,
    "longitude": 44.20000076293945
  },
  "4": {
    "id": 11,
    "name": "Phnom Penh",
    "latitude": 11.569600105285645,
    "longitude": 104.9209976196289
  },
  "5": {
    "id": 12,
    "name": "Naypyidaw",
    "latitude": 19.754005432128906,
    "longitude": 96.1344985961914
  },
  "6": {
    "id": 13,
    "name": "Muscat",
    "latitude": 23.61389923095703,
    "longitude": 58.592201232910156
  },
  "7": {
    "id": 14,
    "name": "Manila",
    "latitude": 14.595800399780273,
    "longitude": 120.97720336914062
  },
  "8": {
    "id": 15,
    "name": "Male",
    "latitude": 4.175000190734863,
    "longitude": 73.50830078125
  },
  "9": {
    "id": 16,
    "name": "Lhasa",
    "latitude": 29.649999618530273,
    "longitude": 91.0999984741211
  },
  "10": {
    "id": 17,
    "name": "Kuwait City",
    "latitude": 29.375,
    "longitude": 47.97999954223633
  },
  "11": {
    "id": 18,
    "name": "Kathmandu",
    "latitude": 27.716699600219727,
    "longitude": 85.36669921875
  },
  "12": {
    "id": 20,
    "name": "Islamabad",
    "latitude": 33.69889831542969,
    "longitude": 73.03690338134766
  },
  "13": {
    "id": 21,
    "name": "Dushanbe",
    "latitude": 38.57310104370117,
    "longitude": 68.7863998413086
  },
  "14": {
    "id": 22,
    "name": "Doha",
    "latitude": 25.299999237060547,
    "longitude": 51.53329849243164
  },
  "15": {
    "id": 23,
    "name": "Dhaka",
    "latitude": 23.716100692749023,
    "longitude": 90.39610290527344
  },
  "16": {
    "id": 24,
    "name": "Colombo",
    "latitude": 6.9166998863220215,
    "longitude": 79.83329772949219
  },
  "17": {
    "id": 25,
    "name": "Bishkek",
    "latitude": 42.86669921875,
    "longitude": 74.56670379638672
  },
  "18": {
    "id": 26,
    "name": "Beirut",
    "latitude": 33.88690185546875,
    "longitude": 35.513099670410156
  },
  "19": {
    "id": 27,
    "name": "Bandar Seri Begawan",
    "latitude": 4.9166998863220215,
    "longitude": 114.91670227050781
  },
  "20": {
    "id": 28,
    "name": "Baghdad",
    "latitude": 33.349998474121094,
    "longitude": 44.41669845581055
  },
  "21": {
    "id": 29,
    "name": "Astana Nur-Sultan",
    "latitude": 51.13330078125,
    "longitude": 71.43329620361328
  },
  "22": {
    "id": 30,
    "name": "Ashgabat",
    "latitude": 37.95000076293945,
    "longitude": 58.38330078125
  },
  "23": {
    "id": 31,
    "name": "Amman",
    "latitude": 31.950000762939453,
    "longitude": 35.93330001831055
  },
  "24": {
    "id": 32,
    "name": "Manama",
    "latitude": 26.216699600219727,
    "longitude": 50.583099365234375
  },
  "25": {
    "id": 33,
    "name": "Tbilisi",
    "latitude": 41.72249984741211,
    "longitude": 44.79249954223633
  },
  "26": {
    "id": 34,
    "name": "Baku",
    "latitude": 40.36669921875,
    "longitude": 49.835201263427734
  },
  "27": {
    "id": 35,
    "name": "Yerevan",
    "latitude": 40.181400299072266,
    "longitude": 44.514400482177734
  },
  "28": {
    "id": 36,
    "name": "Honolulu",
    "latitude": 21.32939910888672,
    "longitude": -157.8459930419922
  },
  "29": {
    "id": 37,
    "name": "San Francisco",
    "latitude": 37.75619888305664,
    "longitude": -122.44300079345703
  },
  "30": {
    "id": 38,
    "name": "Orlando",
    "latitude": 28.47719955444336,
    "longitude": -81.33689880371094
  },
  "31": {
    "id": 39,
    "name": "Las Vegas",
    "latitude": 36.233299255371094,
    "longitude": -115.2654037475586
  },
  "32": {
    "id": 40,
    "name": "Los Angeles",
    "latitude": 34.11389923095703,
    "longitude": -118.40679931640625
  },
  "33": {
    "id": 41,
    "name": "Miami",
    "latitude": 25.783899307250977,
    "longitude": -80.21019744873047
  },
  "34": {
    "id": 42,
    "name": "New York",
    "latitude": 40.69430160522461,
    "longitude": -73.92489624023438
  },
  "35": {
    "id": 43,
    "name": "Johannesburg",
    "latitude": -26.20439910888672,
    "longitude": 28.04159927368164
  },
  "36": {
    "id": 44,
    "name": "Dammam",
    "latitude": 26.433300018310547,
    "longitude": 50.099998474121094
  },
  "37": {
    "id": 45,
    "name": "Riyadh",
    "latitude": 24.649999618530273,
    "longitude": 46.709999084472656
  },
  "38": {
    "id": 47,
    "name": "Cancun",
    "latitude": 21.161785125732422,
    "longitude": -86.85104370117188
  },
  "39": {
    "id": 48,
    "name": "Fukuoka",
    "latitude": 33.590301513671875,
    "longitude": 130.4019012451172
  },
  "40": {
    "id": 50,
    "name": "Kyoto",
    "latitude": 35.01110076904297,
    "longitude": 135.76690673828125
  },
  "41": {
    "id": 51,
    "name": "Osaka",
    "latitude": 34.693599700927734,
    "longitude": 135.5019073486328
  },
  "42": {
    "id": 52,
    "name": "Jerusalem",
    "latitude": 31.783300399780273,
    "longitude": 35.21670150756836
  },
  "43": {
    "id": 53,
    "name": "Batam",
    "latitude": 1.1061034202575684,
    "longitude": 104.03782653808594
  },
  "44": {
    "id": 55,
    "name": "Kolkatta",
    "latitude": 22.541099548339844,
    "longitude": 88.33779907226562
  },
  "45": {
    "id": 56,
    "name": "Jaipur",
    "latitude": 26.91670036315918,
    "longitude": 75.86669921875
  },
  "46": {
    "id": 57,
    "name": "Chennai",
    "latitude": 13.082500457763672,
    "longitude": 80.2750015258789
  },
  "47": {
    "id": 58,
    "name": "Hurgada",
    "latitude": 27.22255516052246,
    "longitude": 33.83070755004883
  },
  "48": {
    "id": 59,
    "name": "Beijing",
    "latitude": 39.904998779296875,
    "longitude": 116.39140319824219
  },
  "49": {
    "id": 60,
    "name": "Zhuhai",
    "latitude": 22.276899337768555,
    "longitude": 113.56780242919922
  },
  "50": {
    "id": 61,
    "name": "Guilin",
    "latitude": 25.266700744628906,
    "longitude": 110.2833023071289
  },
  "51": {
    "id": 62,
    "name": "Vancouver",
    "latitude": 49.25,
    "longitude": -123.0999984741211
  },
  "52": {
    "id": 63,
    "name": "Toronto",
    "latitude": 43.74169921875,
    "longitude": -79.37329864501953
  },
  "53": {
    "id": 64,
    "name": "Rio de Janeiro",
    "latitude": -22.908300399780273,
    "longitude": -43.1963996887207
  },
  "54": {
    "id": 65,
    "name": "Buenos Aires",
    "latitude": -34.599700927734375,
    "longitude": -58.381900787353516
  },
  "55": {
    "id": 66,
    "name": "Bangalore",
    "latitude": 12.969900131225586,
    "longitude": 77.5979995727539
  },
  "56": {
    "id": 67,
    "name": "Krabi",
    "latitude": 8.059200286865234,
    "longitude": 98.91889953613281
  },
  "57": {
    "id": 68,
    "name": "Jeju",
    "latitude": 33.509700775146484,
    "longitude": 126.52189636230469
  },
  "58": {
    "id": 69,
    "name": "Abu Dhabi",
    "latitude": 24.478099822998047,
    "longitude": 54.36859893798828
  },
  "59": {
    "id": 70,
    "name": "Auckland",
    "latitude": -36.849998474121094,
    "longitude": 174.78329467773438
  },
  "60": {
    "id": 71,
    "name": "Cebu",
    "latitude": 10.300000190734863,
    "longitude": 123.9000015258789
  },
  "61": {
    "id": 72,
    "name": "Sydney",
    "latitude": -33.8650016784668,
    "longitude": 151.2093963623047
  },
  "62": {
    "id": 73,
    "name": "Melbourne",
    "latitude": -37.8135986328125,
    "longitude": 144.96310424804688
  },
  "63": {
    "id": 74,
    "name": "Marrakech",
    "latitude": 31.629499435424805,
    "longitude": -7.981100082397461
  },
  "64": {
    "id": 75,
    "name": "Penang Island",
    "latitude": 5.3787922859191895,
    "longitude": 100.25017547607422
  },
  "65": {
    "id": 76,
    "name": "Jakarta",
    "latitude": -6.214600086212158,
    "longitude": 106.84510040283203
  },
  "66": {
    "id": 77,
    "name": "Ha Noi",
    "latitude": 21.029449462890625,
    "longitude": 105.85444641113281
  },
  "67": {
    "id": 78,
    "name": "Cairo",
    "latitude": 30.056100845336914,
    "longitude": 31.23940086364746
  },
  "68": {
    "id": 79,
    "name": "Johor Bahru",
    "latitude": 1.4556000232696533,
    "longitude": 103.76110076904297
  },
  "69": {
    "id": 80,
    "name": "Denpasar",
    "latitude": -8.66670036315918,
    "longitude": 115.2166976928711
  },
  "70": {
    "id": 81,
    "name": "Ho Chi Minh",
    "latitude": 10.775843620300293,
    "longitude": 106.70175170898438
  },
  "71": {
    "id": 82,
    "name": "Shanghai",
    "latitude": 31.16670036315918,
    "longitude": 121.4666976928711
  },
  "72": {
    "id": 83,
    "name": "Seoul",
    "latitude": 37.58330154418945,
    "longitude": 127.0
  },
  "73": {
    "id": 84,
    "name": "Medina",
    "latitude": 24.466699600219727,
    "longitude": 39.599998474121094
  },
  "74": {
    "id": 85,
    "name": "Guangzhou",
    "latitude": 23.128799438476562,
    "longitude": 113.25900268554688
  },
  "75": {
    "id": 86,
    "name": "Mecca",
    "latitude": 21.422500610351562,
    "longitude": 39.82609939575195
  },
  "76": {
    "id": 87,
    "name": "Taipei",
    "latitude": 25.047800064086914,
    "longitude": 121.53189849853516
  },
  "77": {
    "id": 88,
    "name": "Pattaya",
    "latitude": 12.931941032409668,
    "longitude": 100.90095520019531
  },
  "78": {
    "id": 89,
    "name": "Tokyo",
    "latitude": 35.689701080322266,
    "longitude": 139.69219970703125
  },
  "79": {
    "id": 90,
    "name": "Phuket",
    "latitude": 7.8881001472473145,
    "longitude": 98.39749908447266
  },
  "80": {
    "id": 91,
    "name": "Mumbai",
    "latitude": 18.966699600219727,
    "longitude": 72.83329772949219
  },
  "81": {
    "id": 92,
    "name": "Shenzhen",
    "latitude": 22.53499984741211,
    "longitude": 114.05400085449219
  },
  "82": {
    "id": 93,
    "name": "Delhi",
    "latitude": 28.65999984741211,
    "longitude": 77.2300033569336
  },
  "83": {
    "id": 94,
    "name": "Kuala Lumpur",
    "latitude": 3.1477999687194824,
    "longitude": 101.69529724121094
  },
  "84": {
    "id": 95,
    "name": "Dubai",
    "latitude": 25.269699096679688,
    "longitude": 55.30939865112305
  },
  "85": {
    "id": 96,
    "name": "Singapore",
    "latitude": 1.2999999523162842,
    "longitude": 103.80000305175781
  },
  "86": {
    "id": 97,
    "name": "Macau",
    "latitude": 22.202999114990234,
    "longitude": 113.54499816894531
  },
  "87": {
    "id": 98,
    "name": "Bangkok",
    "latitude": 13.75,
    "longitude": 100.5167007446289
  },
  "88": {
    "id": 99,
    "name": "Hong Kong",
    "latitude": 22.30500030517578,
    "longitude": 114.18499755859375
  },
  "89": {
    "id": 100,
    "name": "Antwerp",
    "latitude": 51.221099853515625,
    "longitude": 4.399700164794922
  },
  "90": {
    "id": 101,
    "name": "Aberdeen",
    "latitude": 57.150001525878906,
    "longitude": -2.109999895095825
  },
  "91": {
    "id": 102,
    "name": "Augsburg",
    "latitude": 48.371700286865234,
    "longitude": 10.898300170898438
  },
  "92": {
    "id": 103,
    "name": "Alexandroupolis",
    "latitude": 40.849998474121094,
    "longitude": 25.86669921875
  },
  "93": {
    "id": 104,
    "name": "Athens",
    "latitude": 37.979400634765625,
    "longitude": 23.716100692749023
  },
  "94": {
    "id": 105,
    "name": "Alicante",
    "latitude": 38.345298767089844,
    "longitude": -0.4830999970436096
  },
  "95": {
    "id": 106,
    "name": "Almeria",
    "latitude": 36.8414192199707,
    "longitude": -2.46281361579895
  },
  "96": {
    "id": 107,
    "name": "Aalborg",
    "latitude": 57.03369903564453,
    "longitude": 9.916600227355957
  },
  "97": {
    "id": 108,
    "name": "Aarhus",
    "latitude": 56.15719985961914,
    "longitude": 10.210700035095215
  },
  "98": {
    "id": 109,
    "name": "Ancona",
    "latitude": 43.61669921875,
    "longitude": 13.51669979095459
  },
  "99": {
    "id": 111,
    "name": "Amsterdam",
    "latitude": 52.349998474121094,
    "longitude": 4.916600227355957
  },
  "100": {
    "id": 112,
    "name": "Alanya",
    "latitude": 36.54359817504883,
    "longitude": 31.99970054626465
  },
  "101": {
    "id": 113,
    "name": "Ankara",
    "latitude": 39.93000030517578,
    "longitude": 32.849998474121094
  },
  "102": {
    "id": 114,
    "name": "Antalya",
    "latitude": 36.90810012817383,
    "longitude": 30.695600509643555
  },
  "103": {
    "id": 115,
    "name": "Altenrhein",
    "latitude": 47.49038314819336,
    "longitude": 9.554054260253906
  },
  "104": {
    "id": 116,
    "name": "Brussels",
    "latitude": 50.84669876098633,
    "longitude": 4.3516998291015625
  },
  "105": {
    "id": 117,
    "name": "Burgas",
    "latitude": 42.5,
    "longitude": 27.466699600219727
  },
  "106": {
    "id": 118,
    "name": "Banja Luka",
    "latitude": 44.766700744628906,
    "longitude": 17.183300018310547
  },
  "107": {
    "id": 119,
    "name": "Belfast",
    "latitude": 54.59640121459961,
    "longitude": -5.929999828338623
  },
  "108": {
    "id": 120,
    "name": "Birmingham",
    "latitude": 52.47999954223633,
    "longitude": -1.902500033378601
  },
  "109": {
    "id": 121,
    "name": "Bournemouth",
    "latitude": 50.720001220703125,
    "longitude": -1.8799999952316284
  },
  "110": {
    "id": 122,
    "name": "Bristol",
    "latitude": 51.45000076293945,
    "longitude": -2.5833001136779785
  },
  "111": {
    "id": 123,
    "name": "Budapest",
    "latitude": 47.49829864501953,
    "longitude": 19.040800094604492
  },
  "112": {
    "id": 124,
    "name": "Berlin",
    "latitude": 52.516700744628906,
    "longitude": 13.383299827575684
  },
  "113": {
    "id": 126,
    "name": "Bremen",
    "latitude": 53.115299224853516,
    "longitude": 8.797499656677246
  },
  "114": {
    "id": 127,
    "name": "Billund",
    "latitude": 55.73094177246094,
    "longitude": 9.115935325622559
  },
  "115": {
    "id": 128,
    "name": "Barcelona",
    "latitude": 41.38249969482422,
    "longitude": 2.1768999099731445
  },
  "116": {
    "id": 129,
    "name": "Bilbao",
    "latitude": 43.26219940185547,
    "longitude": -2.9532999992370605
  },
  "117": {
    "id": 130,
    "name": "Bologna",
    "latitude": 44.493900299072266,
    "longitude": 11.34280014038086
  },
  "118": {
    "id": 131,
    "name": "Bergen",
    "latitude": 60.39250183105469,
    "longitude": 5.323299884796143
  },
  "119": {
    "id": 132,
    "name": "Bodo",
    "latitude": 67.28269958496094,
    "longitude": 14.375100135803223
  },
  "120": {
    "id": 134,
    "name": "Bucharest",
    "latitude": 44.400001525878906,
    "longitude": 26.08329963684082
  },
  "121": {
    "id": 135,
    "name": "Belgrade",
    "latitude": 44.81669998168945,
    "longitude": 20.466699600219727
  },
  "122": {
    "id": 136,
    "name": "Bratislava",
    "latitude": 48.14469909667969,
    "longitude": 17.11280059814453
  },
  "123": {
    "id": 137,
    "name": "Bordeaux",
    "latitude": 44.84000015258789,
    "longitude": -0.5799999833106995
  },
  "124": {
    "id": 139,
    "name": "Brno",
    "latitude": 49.1953010559082,
    "longitude": 16.608299255371094
  },
  "125": {
    "id": 140,
    "name": "Basel",
    "latitude": 47.56060028076172,
    "longitude": 7.59060001373291
  },
  "126": {
    "id": 141,
    "name": "Bern",
    "latitude": 46.948001861572266,
    "longitude": 7.447400093078613
  },
  "127": {
    "id": 142,
    "name": "Cardiff",
    "latitude": 51.48165512084961,
    "longitude": -3.1791934967041016
  },
  "128": {
    "id": 145,
    "name": "Cologne",
    "latitude": 50.94219970703125,
    "longitude": 6.957799911499023
  },
  "129": {
    "id": 146,
    "name": "Corfu",
    "latitude": 39.59133529663086,
    "longitude": 19.859619140625
  },
  "130": {
    "id": 147,
    "name": "Copenhagen",
    "latitude": 55.6786003112793,
    "longitude": 12.56350040435791
  },
  "131": {
    "id": 150,
    "name": "Cork",
    "latitude": 51.900001525878906,
    "longitude": -8.473099708557129
  },
  "132": {
    "id": 151,
    "name": "Cagliari",
    "latitude": 39.2224006652832,
    "longitude": 9.104000091552734
  },
  "133": {
    "id": 152,
    "name": "Catania",
    "latitude": 37.50270080566406,
    "longitude": 15.087300300598145
  },
  "134": {
    "id": 153,
    "name": "Cluj-Napoca",
    "latitude": 46.779998779296875,
    "longitude": 23.55940055847168
  },
  "135": {
    "id": 154,
    "name": "Clermont-Ferrand",
    "latitude": 45.78310012817383,
    "longitude": 3.08240008354187
  },
  "136": {
    "id": 155,
    "name": "Chambery-Savoie",
    "latitude": 45.56999969482422,
    "longitude": 5.911799907684326
  },
  "137": {
    "id": 156,
    "name": "Cherbourg",
    "latitude": 49.65039825439453,
    "longitude": -1.649999976158142
  },
  "138": {
    "id": 158,
    "name": "Doncaster",
    "latitude": 53.51499938964844,
    "longitude": -1.1330000162124634
  },
  "139": {
    "id": 159,
    "name": "Dortmund",
    "latitude": 51.51390075683594,
    "longitude": 7.4653000831604
  },
  "140": {
    "id": 160,
    "name": "Dresden",
    "latitude": 51.04930114746094,
    "longitude": 13.73840045928955
  },
  "141": {
    "id": 161,
    "name": "Duesseldorf",
    "latitude": 51.22540283203125,
    "longitude": 6.776313781738281
  },
  "142": {
    "id": 162,
    "name": "Dublin",
    "latitude": 53.342498779296875,
    "longitude": -6.2657999992370605
  },
  "143": {
    "id": 163,
    "name": "Dalaman",
    "latitude": 36.81257629394531,
    "longitude": 28.883140563964844
  },
  "144": {
    "id": 164,
    "name": "Dubrovnik",
    "latitude": 42.64030075073242,
    "longitude": 18.108299255371094
  },
  "145": {
    "id": 165,
    "name": "East Midlands",
    "latitude": 52.79656219482422,
    "longitude": -0.6717947721481323
  },
  "146": {
    "id": 166,
    "name": "Edinburgh",
    "latitude": 55.952999114990234,
    "longitude": -3.188999891281128
  },
  "147": {
    "id": 167,
    "name": "Exeter",
    "latitude": 50.71670150756836,
    "longitude": -3.5332999229431152
  },
  "148": {
    "id": 169,
    "name": "Esbjerg",
    "latitude": 55.46699905395508,
    "longitude": 8.449999809265137
  },
  "149": {
    "id": 171,
    "name": "Eilat",
    "latitude": 29.556934356689453,
    "longitude": 34.94979476928711
  },
  "150": {
    "id": 172,
    "name": "Eindhoven",
    "latitude": 51.43000030517578,
    "longitude": 5.5
  },
  "151": {
    "id": 174,
    "name": "Frankfurt",
    "latitude": 50.11360168457031,
    "longitude": 8.679699897766113
  },
  "152": {
    "id": 175,
    "name": "Friedrichshafen",
    "latitude": 47.65420150756836,
    "longitude": 9.47920036315918
  },
  "153": {
    "id": 176,
    "name": "Fuerteventura",
    "latitude": 28.40037727355957,
    "longitude": -14.00486946105957
  },
  "154": {
    "id": 177,
    "name": "Florence",
    "latitude": 43.771400451660156,
    "longitude": 11.254199981689453
  },
  "155": {
    "id": 178,
    "name": "Floro",
    "latitude": 61.59859848022461,
    "longitude": 5.017199993133545
  },
  "156": {
    "id": 179,
    "name": "Faro",
    "latitude": 37.016700744628906,
    "longitude": -7.933300018310547
  },
  "157": {
    "id": 180,
    "name": "Funchal",
    "latitude": 32.650001525878906,
    "longitude": -16.91670036315918
  },
  "158": {
    "id": 181,
    "name": "Graz",
    "latitude": 47.06669998168945,
    "longitude": 15.433300018310547
  },
  "159": {
    "id": 183,
    "name": "Guernsey",
    "latitude": 57.166996002197266,
    "longitude": -7.374732971191406
  },
  "160": {
    "id": 184,
    "name": "Glasgow",
    "latitude": 55.86090087890625,
    "longitude": -4.251399993896484
  },
  "161": {
    "id": 185,
    "name": "Gloucestershire",
    "latitude": 51.76437759399414,
    "longitude": -2.188066244125366
  },
  "162": {
    "id": 186,
    "name": "Granada",
    "latitude": 37.1781005859375,
    "longitude": -3.600800037384033
  },
  "163": {
    "id": 187,
    "name": "Girona",
    "latitude": 41.983299255371094,
    "longitude": 2.816699981689453
  },
  "164": {
    "id": 189,
    "name": "Genoa",
    "latitude": 44.40719985961914,
    "longitude": 8.934000015258789
  },
  "165": {
    "id": 190,
    "name": "Groningen",
    "latitude": 53.220401763916016,
    "longitude": 6.579999923706055
  },
  "166": {
    "id": 191,
    "name": "Gdansk",
    "latitude": 54.36669921875,
    "longitude": 18.63330078125
  },
  "167": {
    "id": 192,
    "name": "Geneva",
    "latitude": 46.20000076293945,
    "longitude": 6.150000095367432
  },
  "168": {
    "id": 193,
    "name": "Gothenburg",
    "latitude": 57.67169952392578,
    "longitude": 11.980999946594238
  },
  "169": {
    "id": 194,
    "name": "Humberside",
    "latitude": 53.57139587402344,
    "longitude": -0.3534606993198395
  },
  "170": {
    "id": 196,
    "name": "Hamburg",
    "latitude": 53.54999923706055,
    "longitude": 10.0
  },
  "171": {
    "id": 197,
    "name": "Hannover",
    "latitude": 52.3744010925293,
    "longitude": 9.73859977722168
  },
  "172": {
    "id": 200,
    "name": "Heraklion",
    "latitude": 35.34001159667969,
    "longitude": 25.134347915649414
  },
  "173": {
    "id": 201,
    "name": "Helsinki",
    "latitude": 60.17559814453125,
    "longitude": 24.934200286865234
  },
  "174": {
    "id": 202,
    "name": "Innsbruck",
    "latitude": 47.2682991027832,
    "longitude": 11.39330005645752
  },
  "175": {
    "id": 203,
    "name": "Inverness",
    "latitude": 57.47809982299805,
    "longitude": -4.223299980163574
  },
  "176": {
    "id": 204,
    "name": "Debrecen",
    "latitude": 47.529998779296875,
    "longitude": 21.63920021057129
  },
  "177": {
    "id": 205,
    "name": "Ibiza",
    "latitude": 38.90890121459961,
    "longitude": 1.432800054550171
  },
  "178": {
    "id": 206,
    "name": "Izmir",
    "latitude": 38.41473388671875,
    "longitude": 27.14341163635254
  },
  "179": {
    "id": 207,
    "name": "Istanbul",
    "latitude": 41.0099983215332,
    "longitude": 28.96030044555664
  },
  "180": {
    "id": 208,
    "name": "Jonkoping",
    "latitude": 57.782562255859375,
    "longitude": 14.165719032287598
  },
  "181": {
    "id": 209,
    "name": "Klagenfurt",
    "latitude": 46.61669921875,
    "longitude": 14.300000190734863
  },
  "182": {
    "id": 210,
    "name": "Karlsruhe Baden-Baden",
    "latitude": 49.016700744628906,
    "longitude": 8.399999618530273
  },
  "183": {
    "id": 211,
    "name": "Kortrijk",
    "latitude": 50.82764434814453,
    "longitude": 3.265988349914551
  },
  "184": {
    "id": 212,
    "name": "Kaunas",
    "latitude": 54.900001525878906,
    "longitude": 23.933300018310547
  },
  "185": {
    "id": 213,
    "name": "Katowice",
    "latitude": 50.25,
    "longitude": 19.0
  },
  "186": {
    "id": 214,
    "name": "Krakow",
    "latitude": 50.0614013671875,
    "longitude": 19.93720054626465
  },
  "187": {
    "id": 215,
    "name": "Kosice",
    "latitude": 48.717227935791016,
    "longitude": 21.249677658081055
  },
  "188": {
    "id": 216,
    "name": "Karlovy Vary",
    "latitude": 50.23059844970703,
    "longitude": 12.8725004196167
  },
  "189": {
    "id": 217,
    "name": "Karlstad",
    "latitude": 59.36709976196289,
    "longitude": 13.499899864196777
  },
  "190": {
    "id": 218,
    "name": "Kuressaare",
    "latitude": 58.253299713134766,
    "longitude": 22.486099243164062
  },
  "191": {
    "id": 219,
    "name": "Linz",
    "latitude": 48.29999923706055,
    "longitude": 14.283300399780273
  },
  "192": {
    "id": 220,
    "name": "Liege",
    "latitude": 50.625,
    "longitude": 5.590700149536133
  },
  "193": {
    "id": 221,
    "name": "Lands End",
    "latitude": 50.06626510620117,
    "longitude": -5.714822292327881
  },
  "194": {
    "id": 222,
    "name": "Liverpool",
    "latitude": 53.400001525878906,
    "longitude": -2.983299970626831
  },
  "195": {
    "id": 224,
    "name": "Leeds",
    "latitude": 53.79970169067383,
    "longitude": -1.5492000579833984
  },
  "196": {
    "id": 225,
    "name": "London",
    "latitude": 51.507198333740234,
    "longitude": -0.1274999976158142
  },
  "197": {
    "id": 227,
    "name": "Lanzarote",
    "latitude": 29.01300048828125,
    "longitude": -13.633999824523926
  },
  "198": {
    "id": 228,
    "name": "Las Palmas de Gran Canaria",
    "latitude": 28.099729537963867,
    "longitude": -15.413430213928223
  },
  "199": {
    "id": 230,
    "name": "Lamezia Terme",
    "latitude": 38.964508056640625,
    "longitude": 16.30214500427246
  },
  "200": {
    "id": 231,
    "name": "Larnaca",
    "latitude": 34.923301696777344,
    "longitude": 33.63050079345703
  },
  "201": {
    "id": 232,
    "name": "Liepaja",
    "latitude": 56.50830078125,
    "longitude": 21.01110076904297
  },
  "202": {
    "id": 233,
    "name": "Luxembourg",
    "latitude": 49.610599517822266,
    "longitude": 6.132800102233887
  },
  "203": {
    "id": 235,
    "name": "Lisbon",
    "latitude": 38.745201110839844,
    "longitude": -9.160400390625
  },
  "204": {
    "id": 236,
    "name": "Ljubljana",
    "latitude": 46.04999923706055,
    "longitude": 14.51669979095459
  },
  "205": {
    "id": 237,
    "name": "Lappeenranta",
    "latitude": 61.05830001831055,
    "longitude": 28.186100006103516
  },
  "206": {
    "id": 239,
    "name": "Lille",
    "latitude": 50.62779998779297,
    "longitude": 3.058300018310547
  },
  "207": {
    "id": 240,
    "name": "Lyon",
    "latitude": 45.7599983215332,
    "longitude": 4.840000152587891
  },
  "208": {
    "id": 241,
    "name": "Lugano",
    "latitude": 46.01029968261719,
    "longitude": 8.962499618530273
  },
  "209": {
    "id": 242,
    "name": "Lulea",
    "latitude": 65.58312225341797,
    "longitude": 22.145954132080078
  },
  "210": {
    "id": 243,
    "name": "Manchester",
    "latitude": 53.479400634765625,
    "longitude": -2.245300054550171
  },
  "211": {
    "id": 244,
    "name": "Mannheim",
    "latitude": 49.48780059814453,
    "longitude": 8.466099739074707
  },
  "212": {
    "id": 245,
    "name": "Memmingen",
    "latitude": 47.98780059814453,
    "longitude": 10.181099891662598
  },
  "213": {
    "id": 246,
    "name": "Muenster",
    "latitude": 51.96250915527344,
    "longitude": 7.625187873840332
  },
  "214": {
    "id": 247,
    "name": "Munich",
    "latitude": 48.13719940185547,
    "longitude": 11.575499534606934
  },
  "215": {
    "id": 248,
    "name": "Madrid",
    "latitude": 40.41889953613281,
    "longitude": -3.6919000148773193
  },
  "216": {
    "id": 249,
    "name": "Malaga",
    "latitude": 36.7213020324707,
    "longitude": -4.421636581420898
  },
  "217": {
    "id": 250,
    "name": "Mahon",
    "latitude": 51.89220428466797,
    "longitude": -8.404247283935547
  },
  "218": {
    "id": 251,
    "name": "Murcia",
    "latitude": 37.98659896850586,
    "longitude": -1.1414999961853027
  },
  "219": {
    "id": 252,
    "name": "Milan",
    "latitude": 45.46689987182617,
    "longitude": 9.1899995803833
  },
  "220": {
    "id": 253,
    "name": "Malta",
    "latitude": 42.98529815673828,
    "longitude": -73.78790283203125
  },
  "221": {
    "id": 255,
    "name": "Maastricht",
    "latitude": 50.85300064086914,
    "longitude": 5.677000045776367
  },
  "222": {
    "id": 257,
    "name": "Milas",
    "latitude": 37.27455139160156,
    "longitude": 27.808570861816406
  },
  "223": {
    "id": 259,
    "name": "Marseille",
    "latitude": 43.2963981628418,
    "longitude": 5.369999885559082
  },
  "224": {
    "id": 260,
    "name": "Metz",
    "latitude": 49.12030029296875,
    "longitude": 6.177800178527832
  },
  "225": {
    "id": 261,
    "name": "Montpellier",
    "latitude": 43.611900329589844,
    "longitude": 3.87719988822937
  },
  "226": {
    "id": 262,
    "name": "Malmo",
    "latitude": 55.60529327392578,
    "longitude": 13.00015640258789
  },
  "227": {
    "id": 263,
    "name": "Norwich",
    "latitude": 52.630001068115234,
    "longitude": 1.2970000505447388
  },
  "228": {
    "id": 264,
    "name": "Newcastle",
    "latitude": 55.0077018737793,
    "longitude": -1.6577999591827393
  },
  "229": {
    "id": 265,
    "name": "Newquay",
    "latitude": 50.4119987487793,
    "longitude": -5.075699806213379
  },
  "230": {
    "id": 266,
    "name": "Nuremberg",
    "latitude": 49.45280075073242,
    "longitude": 11.077799797058105
  },
  "231": {
    "id": 267,
    "name": "Naples",
    "latitude": 40.83330154418945,
    "longitude": 14.25
  },
  "232": {
    "id": 268,
    "name": "Constanta",
    "latitude": 44.173301696777344,
    "longitude": 28.6382999420166
  },
  "233": {
    "id": 269,
    "name": "Nantes",
    "latitude": 47.218101501464844,
    "longitude": -1.5528000593185425
  },
  "234": {
    "id": 270,
    "name": "Nice",
    "latitude": 43.703399658203125,
    "longitude": 7.266300201416016
  },
  "235": {
    "id": 271,
    "name": "Norrkoping",
    "latitude": 58.590911865234375,
    "longitude": 16.190351486206055
  },
  "236": {
    "id": 272,
    "name": "Ostend",
    "latitude": 51.22585678100586,
    "longitude": 2.9194960594177246
  },
  "237": {
    "id": 273,
    "name": "Alderney",
    "latitude": 49.728370666503906,
    "longitude": -2.2254276275634766
  },
  "238": {
    "id": 274,
    "name": "Oviedo",
    "latitude": 43.363399505615234,
    "longitude": -5.842299938201904
  },
  "239": {
    "id": 275,
    "name": "Olbia",
    "latitude": 40.91429901123047,
    "longitude": 9.51509952545166
  },
  "240": {
    "id": 276,
    "name": "Ohrid",
    "latitude": 41.11690139770508,
    "longitude": 20.80190086364746
  },
  "241": {
    "id": 277,
    "name": "Oslo",
    "latitude": 59.91109848022461,
    "longitude": 10.752799987792969
  },
  "242": {
    "id": 279,
    "name": "Ostrava",
    "latitude": 49.835601806640625,
    "longitude": 18.292499542236328
  },
  "243": {
    "id": 280,
    "name": "Plovdiv",
    "latitude": 42.1432991027832,
    "longitude": 24.748899459838867
  },
  "244": {
    "id": 281,
    "name": "Plymouth",
    "latitude": 50.37139892578125,
    "longitude": -4.142199993133545
  },
  "245": {
    "id": 282,
    "name": "Paderborn",
    "latitude": 51.71670150756836,
    "longitude": 8.76669979095459
  },
  "246": {
    "id": 283,
    "name": "Rostock",
    "latitude": 54.08330154418945,
    "longitude": 12.133299827575684
  },
  "247": {
    "id": 284,
    "name": "Palma Majorca",
    "latitude": 39.56863021850586,
    "longitude": 2.6482481956481934
  },
  "248": {
    "id": 285,
    "name": "Palermo",
    "latitude": 38.115699768066406,
    "longitude": 13.361300468444824
  },
  "249": {
    "id": 286,
    "name": "Pescara",
    "latitude": 42.464298248291016,
    "longitude": 14.214200019836426
  },
  "250": {
    "id": 287,
    "name": "Pisa",
    "latitude": 43.71670150756836,
    "longitude": 10.399999618530273
  },
  "251": {
    "id": 288,
    "name": "Paphos",
    "latitude": 34.776100158691406,
    "longitude": 32.42649841308594
  },
  "252": {
    "id": 289,
    "name": "Palanga",
    "latitude": 55.91669845581055,
    "longitude": 21.063899993896484
  },
  "253": {
    "id": 290,
    "name": "Ponta Delgada",
    "latitude": 37.7400016784668,
    "longitude": -25.670000076293945
  },
  "254": {
    "id": 291,
    "name": "Porto",
    "latitude": 41.14950180053711,
    "longitude": -8.610799789428711
  },
  "255": {
    "id": 292,
    "name": "Poprad",
    "latitude": 49.04999923706055,
    "longitude": 20.299999237060547
  },
  "256": {
    "id": 293,
    "name": "Paris",
    "latitude": 48.85660171508789,
    "longitude": 2.3522000312805176
  },
  "257": {
    "id": 294,
    "name": "Pula",
    "latitude": 44.86669921875,
    "longitude": 13.83329963684082
  },
  "258": {
    "id": 295,
    "name": "Podgorica",
    "latitude": 42.439701080322266,
    "longitude": 19.26609992980957
  },
  "259": {
    "id": 296,
    "name": "Pardubice",
    "latitude": 50.03860092163086,
    "longitude": 15.779199600219727
  },
  "260": {
    "id": 297,
    "name": "Prague",
    "latitude": 50.08330154418945,
    "longitude": 14.41670036315918
  },
  "261": {
    "id": 299,
    "name": "Rhodes",
    "latitude": 36.441200256347656,
    "longitude": 28.22249984741211
  },
  "262": {
    "id": 300,
    "name": "Reykjavik",
    "latitude": 64.14598083496094,
    "longitude": -21.942235946655273
  },
  "263": {
    "id": 301,
    "name": "Reus",
    "latitude": 41.155555725097656,
    "longitude": 1.1076133251190186
  },
  "264": {
    "id": 302,
    "name": "Rijeka",
    "latitude": 45.3297004699707,
    "longitude": 14.43220043182373
  },
  "265": {
    "id": 303,
    "name": "Rome",
    "latitude": 41.89310073852539,
    "longitude": 12.482799530029297
  },
  "266": {
    "id": 304,
    "name": "Rimini",
    "latitude": 44.05939865112305,
    "longitude": 12.568300247192383
  },
  "267": {
    "id": 305,
    "name": "Riga",
    "latitude": 56.9474983215332,
    "longitude": 24.10689926147461
  },
  "268": {
    "id": 306,
    "name": "Rotterdam",
    "latitude": 51.91999816894531,
    "longitude": 4.480000019073486
  },
  "269": {
    "id": 307,
    "name": "Ronneby",
    "latitude": 56.29999923706055,
    "longitude": 15.283332824707031
  },
  "270": {
    "id": 308,
    "name": "Salzburg",
    "latitude": 47.79719924926758,
    "longitude": 13.047699928283691
  },
  "271": {
    "id": 309,
    "name": "Sofia",
    "latitude": 42.6974983215332,
    "longitude": 23.324100494384766
  },
  "272": {
    "id": 310,
    "name": "Sarajevo",
    "latitude": 43.86669921875,
    "longitude": 18.41670036315918
  },
  "273": {
    "id": 311,
    "name": "Southampton",
    "latitude": 50.900001525878906,
    "longitude": -1.399999976158142
  },
  "274": {
    "id": 312,
    "name": "Swansea",
    "latitude": 41.75709915161133,
    "longitude": -71.21199798583984
  },
  "275": {
    "id": 314,
    "name": "Poznan",
    "latitude": 52.400001525878906,
    "longitude": 16.91670036315918
  },
  "276": {
    "id": 315,
    "name": "Saarbruecken",
    "latitude": 49.2343635559082,
    "longitude": 6.9963788986206055
  },
  "277": {
    "id": 316,
    "name": "Stuttgart",
    "latitude": 48.776100158691406,
    "longitude": 9.177499771118164
  },
  "278": {
    "id": 317,
    "name": "Santorini",
    "latitude": 36.40711212158203,
    "longitude": 25.456663131713867
  },
  "279": {
    "id": 318,
    "name": "Shannon",
    "latitude": 52.71369934082031,
    "longitude": -8.868599891662598
  },
  "280": {
    "id": 319,
    "name": "Salamanca",
    "latitude": 20.57029914855957,
    "longitude": -101.19719696044922
  },
  "281": {
    "id": 320,
    "name": "Santiago de Compostela",
    "latitude": 42.88050079345703,
    "longitude": -8.545700073242188
  },
  "282": {
    "id": 321,
    "name": "Sevilla",
    "latitude": 37.3828010559082,
    "longitude": -5.973100185394287
  },
  "283": {
    "id": 323,
    "name": "Skopje",
    "latitude": 41.983299255371094,
    "longitude": 21.433300018310547
  },
  "284": {
    "id": 325,
    "name": "Stavanger",
    "latitude": 58.97010040283203,
    "longitude": 5.73330020904541
  },
  "285": {
    "id": 326,
    "name": "Strasbourg",
    "latitude": 48.58330154418945,
    "longitude": 7.745800018310547
  },
  "286": {
    "id": 327,
    "name": "Split",
    "latitude": 43.5099983215332,
    "longitude": 16.450000762939453
  },
  "287": {
    "id": 329,
    "name": "Stockholm",
    "latitude": 59.32939910888672,
    "longitude": 18.068599700927734
  },
  "288": {
    "id": 330,
    "name": "Tirana",
    "latitude": 41.33000183105469,
    "longitude": 19.81999969482422
  },
  "289": {
    "id": 331,
    "name": "Thessaloniki",
    "latitude": 40.63330078125,
    "longitude": 22.950000762939453
  },
  "290": {
    "id": 332,
    "name": "Tenerife",
    "latitude": 28.216999053955078,
    "longitude": -16.589000701904297
  },
  "291": {
    "id": 334,
    "name": "Trieste",
    "latitude": 45.63610076904297,
    "longitude": 13.804200172424316
  },
  "292": {
    "id": 335,
    "name": "Turin",
    "latitude": 45.06669998168945,
    "longitude": 7.699999809265137
  },
  "293": {
    "id": 336,
    "name": "Tel-Aviv",
    "latitude": 32.08330154418945,
    "longitude": 34.79999923706055
  },
  "294": {
    "id": 337,
    "name": "Terceira Island",
    "latitude": 38.72116470336914,
    "longitude": -27.217639923095703
  },
  "295": {
    "id": 338,
    "name": "Timisoara",
    "latitude": 45.759700775146484,
    "longitude": 21.229999542236328
  },
  "296": {
    "id": 339,
    "name": "Trabzon",
    "latitude": 41.005001068115234,
    "longitude": 39.72249984741211
  },
  "297": {
    "id": 340,
    "name": "Tampere",
    "latitude": 61.49810028076172,
    "longitude": 23.760799407958984
  },
  "298": {
    "id": 341,
    "name": "Turku",
    "latitude": 60.451698303222656,
    "longitude": 22.270000457763672
  },
  "299": {
    "id": 342,
    "name": "Toulouse",
    "latitude": 43.60449981689453,
    "longitude": 1.444000005722046
  },
  "300": {
    "id": 343,
    "name": "Tivat",
    "latitude": 42.43000030517578,
    "longitude": 18.700000762939453
  },
  "301": {
    "id": 345,
    "name": "Tallinn",
    "latitude": 59.437198638916016,
    "longitude": 24.7450008392334
  },
  "302": {
    "id": 346,
    "name": "Tartu",
    "latitude": 58.380001068115234,
    "longitude": 26.72249984741211
  },
  "303": {
    "id": 347,
    "name": "Umea",
    "latitude": 63.82565689086914,
    "longitude": 20.26307487487793
  },
  "304": {
    "id": 348,
    "name": "Vienna",
    "latitude": 48.20830154418945,
    "longitude": 16.37310028076172
  },
  "305": {
    "id": 349,
    "name": "Varna",
    "latitude": 43.207801818847656,
    "longitude": 27.916900634765625
  },
  "306": {
    "id": 351,
    "name": "Valencia",
    "latitude": 10.16670036315918,
    "longitude": -68.0
  },
  "307": {
    "id": 352,
    "name": "Valladolid",
    "latitude": 41.652000427246094,
    "longitude": -4.728600025177002
  },
  "308": {
    "id": 353,
    "name": "Venice",
    "latitude": 45.439701080322266,
    "longitude": 12.331899642944336
  },
  "309": {
    "id": 354,
    "name": "Verona",
    "latitude": 45.4385986328125,
    "longitude": 10.992799758911133
  },
  "310": {
    "id": 356,
    "name": "Vilnius",
    "latitude": 54.68330001831055,
    "longitude": 25.283300399780273
  },
  "311": {
    "id": 357,
    "name": "Iasi",
    "latitude": 47.162200927734375,
    "longitude": 27.588899612426758
  },
  "312": {
    "id": 358,
    "name": "Vaxjo",
    "latitude": 56.878719329833984,
    "longitude": 14.809438705444336
  },
  "313": {
    "id": 359,
    "name": "Visby",
    "latitude": 57.62900161743164,
    "longitude": 18.307100296020508
  },
  "314": {
    "id": 361,
    "name": "Weeze",
    "latitude": 51.62672805786133,
    "longitude": 6.201155662536621
  },
  "315": {
    "id": 362,
    "name": "Westerland",
    "latitude": 54.90999984741211,
    "longitude": 8.307499885559082
  },
  "316": {
    "id": 364,
    "name": "Warsaw",
    "latitude": 52.21670150756836,
    "longitude": 21.033300399780273
  },
  "317": {
    "id": 365,
    "name": "Wroclaw",
    "latitude": 51.10770034790039,
    "longitude": 17.03529930114746
  },
  "318": {
    "id": 366,
    "name": "Zweibruecken",
    "latitude": 49.248653411865234,
    "longitude": 7.364198207855225
  },
  "319": {
    "id": 367,
    "name": "Zaragoza",
    "latitude": 41.64830017089844,
    "longitude": -0.8830000162124634
  },
  "320": {
    "id": 368,
    "name": "Zagreb",
    "latitude": 45.79999923706055,
    "longitude": 15.949999809265137
  },
  "321": {
    "id": 369,
    "name": "Zadar",
    "latitude": 44.11669921875,
    "longitude": 15.216699600219727
  },
  "322": {
    "id": 370,
    "name": "Zurich",
    "latitude": 47.37445068359375,
    "longitude": 8.54104232788086
  },
  "323": {
    "id": 371,
    "name": "Chisinau",
    "latitude": 47.00559997558594,
    "longitude": 28.857500076293945
  },
  "324": {
    "id": 546,
    "name": "Pristina",
    "latitude": 42.66669845581055,
    "longitude": 21.16670036315918
  },
  "325": {
    "id": 547,
    "name": "Thimphu",
    "latitude": 27.483299255371094,
    "longitude": 89.63330078125
  },
  "326": {
    "id": 548,
    "name": "Ulaanbaatar",
    "latitude": 47.9202995300293,
    "longitude": 106.91719818115234
  },
  "327": {
    "id": 550,
    "name": "Agartala",
    "latitude": 23.83329963684082,
    "longitude": 91.2667007446289
  },
  "328": {
    "id": 551,
    "name": "Agra",
    "latitude": 27.18000030517578,
    "longitude": 78.0199966430664
  },
  "329": {
    "id": 552,
    "name": "Ahmedabad",
    "latitude": 23.030000686645508,
    "longitude": 72.58000183105469
  },
  "330": {
    "id": 553,
    "name": "Aizawl",
    "latitude": 23.710399627685547,
    "longitude": 92.72000122070312
  },
  "331": {
    "id": 554,
    "name": "Allahabad",
    "latitude": 25.454999923706055,
    "longitude": 81.83999633789062
  },
  "332": {
    "id": 626,
    "name": "Thiruvananthapuram",
    "latitude": 8.5,
    "longitude": 76.89969635009766
  },
  "333": {
    "id": 663,
    "name": "Chicago",
    "latitude": 41.83729934692383,
    "longitude": -87.68620300292969
  }
}
